City_ID,City,Country,Lat,Lng,Max Temp,Humidity,Cloudiness,Wind Speed,Current Description
0,Longjiang,CN,47.3303,123.1836,3.33,97,100,5.7,overcast clouds
1,Vaini,TO,-21.2,-175.2,82.56,83,40,10.36,scattered clouds
2,Muros,ES,42.7762,-9.0603,54.23,91,18,5.97,few clouds
3,Eilenburg,DE,51.4598,12.6334,49.24,68,100,9.01,overcast clouds
4,Cidreira,BR,-30.1811,-50.2056,72.39,69,29,11.88,scattered clouds
5,Lima,PE,-12.0432,-77.0282,73.38,79,0,8.05,clear sky
6,Hilo,US,19.7297,-155.09,77.25,71,100,5.99,overcast clouds
7,Yellowknife,CA,62.456,-114.3525,-6.59,79,100,10.0,light snow
8,Hirara,JP,24.8,125.2833,59.27,88,20,2.3,few clouds
9,Padang,ID,-0.9492,100.3543,75.58,62,100,6.46,overcast clouds
10,Punta Arenas,CL,-53.15,-70.9167,51.91,50,75,34.52,broken clouds
11,Ureki,GE,41.9956,41.7786,46.36,95,100,14.79,light rain
12,Necochea,AR,-38.5473,-58.7368,82.04,45,44,10.71,scattered clouds
13,Barrow,US,71.2906,-156.7887,-23.78,69,0,16.11,clear sky
14,Biltine,TD,14.5333,20.9167,66.9,11,0,10.6,clear sky
15,Nuevitas,CU,21.5453,-77.2644,78.24,75,77,5.88,broken clouds
16,Ossora,RU,59.2353,163.0719,-11.43,100,71,2.51,broken clouds
17,Kapaa,US,22.0752,-159.319,79.48,69,0,6.91,clear sky
18,Port Alfred,ZA,-33.5906,26.891,66.47,84,3,7.85,clear sky
19,Ponta Do Sol,PT,32.6667,-17.1,68.63,53,100,5.44,overcast clouds
20,Nivala,FI,63.9167,24.9667,27.68,91,100,7.49,overcast clouds
21,Selishche,RU,56.8879,33.2691,29.86,91,100,10.16,light snow
22,Kulykiv,UA,50.3142,24.8176,42.67,94,100,14.88,overcast clouds
23,Coquimbo,CL,-29.9533,-71.3436,65.93,77,75,9.22,broken clouds
24,Rapid Valley,US,44.0625,-103.1463,41.04,90,100,13.8,snow
25,Bredasdorp,ZA,-34.5322,20.0403,65.52,88,77,5.75,light rain
26,Mayor Pablo Lagerenza,PY,-19.9309,-60.7718,93.25,21,9,4.7,clear sky
27,Constitucion,CL,-35.3333,-72.4167,66.24,70,18,12.77,few clouds
28,Provideniya,RU,64.3833,-173.3,-2.09,60,0,6.71,clear sky
29,Port Elizabeth,ZA,-33.918,25.5701,64.69,82,0,6.91,clear sky
30,Alofi,NU,-19.0595,-169.9187,82.29,78,75,8.05,broken clouds
31,Albany,US,42.6001,-73.9662,41.58,57,48,4.7,scattered clouds
32,Luderitz,NA,-26.6481,15.1594,75.45,47,16,17.02,few clouds
33,Comodoro Rivadavia,AR,-45.8667,-67.5,71.46,30,40,17.27,scattered clouds
34,Atuona,PF,-9.8,-139.0333,78.57,77,21,16.6,light rain
35,Touros,BR,-5.1989,-35.4608,83.3,70,80,13.44,broken clouds
36,Dikson,RU,73.5069,80.5464,1.89,95,99,21.83,overcast clouds
37,Rikitea,PF,-23.1203,-134.9692,79.2,68,1,14.88,clear sky
38,Namatanai,PG,-3.6667,152.4333,82.47,75,55,3.87,broken clouds
39,Chuy,UY,-33.6971,-53.4616,69.84,67,36,10.42,scattered clouds
40,Hermanus,ZA,-34.4187,19.2345,68.9,89,64,5.19,broken clouds
41,Karymskoye,RU,51.6167,114.35,-5.42,100,98,0.92,overcast clouds
42,Nikolskoye,RU,59.7035,30.7861,35.71,91,100,10.04,light snow
43,Dhidhdhoo,MV,6.8833,73.1,80.91,74,100,9.26,overcast clouds
44,Logan,US,41.7355,-111.8344,47.88,60,100,3.44,overcast clouds
45,San Patricio,US,28.017,-97.5169,75.29,28,1,4.23,clear sky
46,Codrington,AU,-38.2667,141.9667,64.42,62,57,9.75,broken clouds
47,Busselton,AU,-33.65,115.3333,58.08,73,8,10.27,clear sky
48,Mahina,PF,-17.5065,-149.489,83.97,65,40,13.8,scattered clouds
49,Hobart,AU,-42.8794,147.3294,65.05,67,20,12.66,few clouds
50,Inhambane,MZ,-23.865,35.3833,76.03,79,0,6.6,clear sky
51,Neustadt,DE,49.7117,12.0872,43.29,93,0,0.0,clear sky
52,Gat,IL,31.61,34.7642,52.48,100,23,21.12,few clouds
53,Mataura,NZ,-46.1927,168.8643,68.49,93,98,1.95,overcast clouds
54,San Quintin,MX,30.4833,-115.95,69.46,34,36,6.13,scattered clouds
55,Ushuaia,AR,-54.8,-68.3,53.22,46,75,13.8,broken clouds
56,Iqaluit,CA,63.7506,-68.5145,-25.31,67,20,11.5,few clouds
57,Cape Town,ZA,-33.9258,18.4232,69.89,81,40,5.75,scattered clouds
58,Avarua,CK,-21.2078,-159.775,82.45,78,20,14.97,few clouds
59,Saint George,US,37.1041,-113.5841,70.27,17,0,11.99,clear sky
60,Tessalit,ML,20.1986,1.0114,68.29,8,0,8.05,clear sky
61,San Cristobal,VE,7.7669,-72.225,78.98,57,82,3.22,broken clouds
62,Bluff,NZ,-46.6,168.3333,68.81,94,74,3.87,broken clouds
63,San-Pedro,CI,4.7485,-6.6363,78.75,90,34,5.77,scattered clouds
64,Mount Isa,AU,-20.7333,139.5,78.57,89,41,0.0,scattered clouds
65,Zhezkazgan,KZ,47.8043,67.7144,19.29,96,100,4.09,overcast clouds
66,Kamenka,RU,51.3223,42.7678,28.74,96,100,11.32,overcast clouds
67,Kokoda,PG,-8.8785,147.7407,80.02,83,97,0.43,overcast clouds
68,Tiksi,RU,71.6872,128.8694,-12.01,93,100,13.38,overcast clouds
69,Karaton,ID,-6.3424,106.1045,77.95,93,100,5.32,overcast clouds
70,Hasaki,JP,35.7333,140.8333,39.6,62,100,14.58,light rain
71,Emerald,AU,-23.5333,148.1667,75.34,78,2,5.75,clear sky
72,Saldanha,ZA,-33.0117,17.9442,68.05,90,1,3.89,clear sky
73,Lampa,CL,-33.2833,-70.9,84.07,32,0,20.71,clear sky
74,Qaanaaq,GL,77.484,-69.3632,-21.32,81,99,5.95,overcast clouds
75,Whitehorse,CA,60.7161,-135.0538,41.09,70,75,17.27,broken clouds
76,Mountain Home,US,43.133,-115.6912,52.81,100,40,5.75,scattered clouds
77,Zalantun,CN,48.0,122.7167,4.14,89,100,4.65,overcast clouds
78,Thompson,CA,55.7435,-97.8558,-0.24,55,20,6.91,few clouds
79,Ardabil,IR,38.2498,48.2933,29.75,74,40,9.22,scattered clouds
80,Saskylakh,RU,71.9167,114.0833,-6.97,96,61,8.88,broken clouds
81,Cairns,AU,-16.9167,145.7667,78.06,91,14,1.14,few clouds
82,Hithadhoo,MV,-0.6,73.0833,81.86,74,59,11.81,broken clouds
83,Voznesenskoye,RU,54.89,42.7569,14.4,97,93,2.8,overcast clouds
84,Bud,US,39.447,-86.1758,47.43,61,97,13.78,overcast clouds
85,Esperance,AU,-33.8667,121.9,60.64,88,16,9.64,few clouds
86,George Town,MY,5.4112,100.3354,78.89,96,20,4.61,few clouds
87,Jamestown,US,42.097,-79.2353,49.32,65,100,11.5,overcast clouds
88,Luang Prabang,LA,19.8856,102.1347,60.85,75,11,0.36,few clouds
89,Bethel,US,41.3712,-73.414,43.48,59,2,5.57,clear sky
90,Naryan-Mar,RU,67.6713,53.087,13.35,84,43,21.25,scattered clouds
91,Abu Dhabi,AE,24.4667,54.3667,65.97,78,0,1.14,clear sky
92,Fairbanks,US,64.8378,-147.7164,-3.91,75,100,3.44,light snow
93,Okhotsk,RU,59.3833,143.3,7.63,80,100,8.93,overcast clouds
94,Kodiak,US,57.79,-152.4072,22.51,36,0,16.11,clear sky
95,Tuktoyaktuk,CA,69.4541,-133.0374,-27.4,68,75,16.11,broken clouds
96,Kavieng,PG,-2.5744,150.7967,82.13,77,68,5.73,light rain
97,Arraial Do Cabo,BR,-22.9661,-42.0278,73.26,83,75,4.61,light intensity drizzle
98,Antalaha,MG,-14.9003,50.2788,75.16,93,76,4.52,broken clouds
99,New Norfolk,AU,-42.7826,147.0587,64.71,61,57,1.01,broken clouds
100,Saint-Pierre,RE,-21.3393,55.4781,73.08,73,75,4.61,broken clouds
101,Carnarvon,AU,-24.8667,113.6333,75.27,78,0,12.66,clear sky
102,Pacific Grove,US,36.6177,-121.9166,80.71,21,0,5.75,clear sky
103,Eastbourne,GB,50.7687,0.2845,49.41,95,100,9.6,overcast clouds
104,Butaritari,KI,3.0707,172.7902,81.86,77,74,13.82,light rain
105,Lata,PT,40.1629,-8.3327,50.41,69,5,3.06,clear sky
106,East London,ZA,-33.0153,27.9116,69.06,79,0,4.83,clear sky
107,Villa Bruzual,VE,9.3328,-69.1208,88.12,46,100,4.63,overcast clouds
108,Tondano,ID,1.3038,124.9112,68.09,92,99,1.1,overcast clouds
109,Bambous Virieux,MU,-20.3428,57.7575,74.21,94,40,9.22,scattered clouds
110,Karratha,AU,-20.7377,116.8463,82.33,73,39,1.57,scattered clouds
111,Sampit,ID,-2.5333,112.95,72.57,97,100,0.67,moderate rain
112,Pipirig,RO,47.25,26.0667,37.26,87,42,6.64,scattered clouds
113,Manuk Mangkaw,PH,4.8,119.85,80.13,81,86,6.87,overcast clouds
114,Souillac,MU,-20.5167,57.5167,74.35,94,40,9.22,scattered clouds
115,Viedma,AR,-40.8135,-62.9967,77.23,52,94,15.66,overcast clouds
116,Lorengau,PG,-2.0226,147.2712,82.38,79,59,4.56,broken clouds
117,Vardo,NO,70.3705,31.1107,28.38,80,100,20.71,overcast clouds
118,Moron,AR,-34.6534,-58.6198,82.0,62,4,9.31,clear sky
119,Eydhafushi,MV,5.1033,73.0708,80.8,74,40,9.06,scattered clouds
120,Ventspils,LV,57.3894,21.5606,39.13,87,0,19.57,clear sky
121,Pisco,PE,-13.7,-76.2167,74.01,83,20,8.05,few clouds
122,Puerto Ayora,EC,-0.7393,-90.3518,82.36,73,67,7.72,broken clouds
123,Riviere-Au-Renard,CA,48.9957,-64.3971,34.09,95,67,6.44,broken clouds
124,Hualmay,PE,-11.0964,-77.6139,72.9,72,81,8.48,broken clouds
125,Poum,NC,-20.2333,164.0167,81.18,87,97,29.37,overcast clouds
126,Lufilufi,WS,-13.8745,-171.5986,87.58,79,100,14.43,light rain
127,Buala,SB,-8.145,159.5921,82.36,79,24,6.51,light rain
128,Juruti,BR,-2.1522,-56.0922,78.01,88,87,0.96,moderate rain
129,Namibe,AO,-15.1961,12.1522,74.59,76,100,9.89,overcast clouds
130,Tautira,PF,-17.7333,-149.15,84.22,78,30,17.31,light rain
131,Mahebourg,MU,-20.4081,57.7,74.25,94,40,9.22,scattered clouds
132,Bukama,CD,-9.2,25.85,69.15,97,95,0.6,overcast clouds
133,Airai,TL,-8.9266,125.4092,61.14,92,100,0.92,overcast clouds
134,Las Vegas,US,36.175,-115.1372,74.43,11,0,13.8,clear sky
135,Torbay,CA,47.6666,-52.7314,36.27,92,100,20.71,light shower snow
136,Ribeira Grande,PT,38.5167,-28.7,57.6,72,20,8.05,few clouds
137,Talavera,PH,15.6167,120.9333,69.51,87,32,3.09,scattered clouds
138,Narsaq,GL,60.9167,-46.05,16.02,75,92,9.53,overcast clouds
139,Husavik,IS,66.0449,-17.3389,22.91,65,100,17.18,overcast clouds
140,Katsuura,JP,35.1333,140.3,41.14,73,100,17.07,overcast clouds
141,Ilulissat,GL,69.2167,-51.1,17.62,53,100,14.97,overcast clouds
142,Sao Filipe,CV,14.8961,-24.4956,76.8,61,75,2.44,broken clouds
143,High Level,CA,58.5169,-117.136,6.91,92,100,8.05,light snow
144,Vila Velha,BR,-20.3297,-40.2925,73.94,85,75,10.36,broken clouds
145,Carballo,ES,43.213,-8.691,53.87,84,4,4.83,clear sky
146,Siguiri,GN,11.6667,-9.5,78.93,15,3,2.98,clear sky
147,Khatanga,RU,71.9667,102.5,-3.91,94,99,14.23,overcast clouds
148,Ban Nahin,LA,18.2418,104.2122,63.93,84,13,3.69,few clouds
149,Nome,US,64.5011,-165.4064,-9.33,70,100,9.22,overcast clouds
150,Damghan,IR,36.1683,54.348,40.68,45,79,2.62,broken clouds
151,Milkovo,RU,54.7167,158.6167,7.0,96,100,1.7,overcast clouds
152,Armeria,MX,18.9333,-103.9667,88.9,46,0,9.42,clear sky
153,Arona,ES,28.0996,-16.681,70.79,41,100,17.27,light rain
154,Darlington,GB,54.5243,-1.5504,41.11,76,0,12.66,clear sky
155,Saint-Philippe,RE,-21.3585,55.7679,72.99,81,93,4.76,overcast clouds
156,Porto Velho,BR,-8.7619,-63.9039,82.45,78,75,1.14,broken clouds
157,Muir Of Ord,GB,57.5198,-4.4594,36.73,95,100,14.47,overcast clouds
158,Pemangkat,ID,1.1667,108.9667,74.61,93,100,1.12,heavy intensity rain
159,Pechora,RU,65.1472,57.2244,12.76,79,10,14.58,clear sky
160,Opuwo,NA,-18.0607,13.84,66.83,90,100,1.03,heavy intensity rain
161,Rawson,AR,-43.3002,-65.1023,68.07,67,77,14.92,broken clouds
162,Baiyin,CN,36.5583,104.2081,16.68,79,100,2.75,overcast clouds
163,Troitsko-Pechorsk,RU,62.7084,56.1964,15.35,90,70,12.75,broken clouds
164,Aksarka,RU,66.5606,67.7975,-0.49,99,99,9.08,overcast clouds
165,Sovetskiy,RU,61.3614,63.5842,8.28,95,82,10.25,broken clouds
166,Hami,CN,42.8,93.45,26.26,38,100,2.35,overcast clouds
167,Plettenberg Bay,ZA,-34.0527,23.3716,65.46,78,5,6.89,clear sky
168,Mogocha,RU,53.7333,119.7667,-4.31,99,100,2.55,overcast clouds
169,Tasiilaq,GL,65.6145,-37.6368,8.76,54,81,11.05,broken clouds
170,Centralia,US,46.7162,-122.9543,58.41,79,100,4.61,overcast clouds
171,Fortuna,US,40.5982,-124.1573,72.86,56,0,1.99,clear sky
172,Tavares,US,28.8042,-81.7256,67.41,37,0,8.05,clear sky
173,Ancud,CL,-41.8697,-73.8203,64.42,71,99,9.89,overcast clouds
174,Port-Cartier,CA,50.0334,-66.8654,30.74,97,100,5.39,overcast clouds
175,Flin Flon,CA,54.7682,-101.865,6.64,72,100,4.61,overcast clouds
176,Havoysund,NO,70.9963,24.6622,25.03,77,95,13.02,overcast clouds
177,Kruisfontein,ZA,-34.0033,24.7314,61.57,86,0,5.23,clear sky
178,Kayerkan,RU,69.3497,87.7602,-4.49,76,100,8.55,overcast clouds
179,Birin,NP,26.8865,88.0718,42.26,79,28,4.41,scattered clouds
180,Atakpame,TG,7.5333,1.1333,78.19,57,0,6.82,clear sky
181,Quimper,FR,48.0,-4.1,47.61,100,100,4.61,mist
182,Tandil,AR,-37.3217,-59.1332,74.41,47,13,6.4,few clouds
183,Port-Gentil,GA,-0.7193,8.7815,80.56,94,20,2.3,few clouds
184,Durant,US,33.994,-96.3708,70.41,18,0,6.33,clear sky
185,Port Hardy,CA,50.6996,-127.4199,47.75,93,100,5.75,overcast clouds
186,Berbera,SO,10.4396,45.0143,74.41,69,1,6.96,clear sky
187,Vostok,RU,46.4856,135.8833,-5.49,95,37,4.32,scattered clouds
188,Quelimane,MZ,-17.8786,36.8883,80.55,78,0,3.44,clear sky
189,Rorvik,NO,64.8621,11.2373,37.51,87,75,25.32,light snow
190,Byron Bay,AU,-28.65,153.6167,76.05,70,4,6.64,clear sky
191,Amapa,BR,1.0,-52.0,73.47,97,100,3.27,overcast clouds
192,Sorland,NO,67.667,12.6934,35.67,61,90,30.87,overcast clouds
193,Severo-Kurilsk,RU,50.6789,156.125,30.67,88,100,21.14,light snow
194,Faanui,PF,-16.4833,-151.75,80.96,77,25,14.43,light rain
195,Billings,US,45.7833,-108.5007,56.16,34,40,26.46,scattered clouds
196,Chumikan,RU,54.7183,135.315,1.71,95,100,9.08,overcast clouds
197,Ballina,AU,-28.8667,153.5667,69.78,92,5,2.3,clear sky
198,Georgetown,MY,5.4112,100.3354,78.89,97,20,4.61,few clouds
199,Porto Walter,BR,-8.2686,-72.7439,74.98,89,99,3.98,overcast clouds
200,Tromso,NO,69.6496,18.957,32.02,55,40,9.22,scattered clouds
201,Paso De Los Toros,UY,-32.8167,-56.5167,80.94,42,0,6.42,clear sky
202,Thunder Bay,CA,48.4001,-89.3168,27.28,76,100,18.41,overcast clouds
203,Upernavik,GL,72.7868,-56.1549,-12.73,71,100,10.38,overcast clouds
204,Cayenne,GF,4.9333,-52.3333,75.24,91,100,5.75,overcast clouds
205,Vestmannaeyjar,IS,63.4427,-20.2734,26.49,72,50,25.01,scattered clouds
206,Sitka,US,57.0531,-135.33,46.29,87,100,12.66,moderate rain
207,Aubel,BE,50.7019,5.8581,44.78,100,34,5.7,scattered clouds
208,Vila Franca Do Campo,PT,37.7167,-25.4333,60.19,79,7,7.56,clear sky
209,Pedasi,PA,7.5333,-80.0333,87.06,67,34,11.16,scattered clouds
210,Bengkulu,ID,-3.8004,102.2655,76.69,61,100,0.4,overcast clouds
211,Lebu,CL,-37.6167,-73.65,61.83,72,0,21.54,clear sky
212,Longyearbyen,SJ,78.2186,15.6401,10.24,85,75,10.36,light snow
213,Kargasok,RU,59.0556,80.8572,-18.74,100,17,4.54,few clouds
214,Kavaratti,IN,10.5669,72.642,79.16,71,100,15.46,overcast clouds
215,Conceicao Do Araguaia,BR,-8.2578,-49.2647,76.33,90,100,3.49,moderate rain
216,Yulara,AU,-25.2406,130.9889,75.04,50,0,9.22,clear sky
217,Dingle,PH,10.9995,122.6711,72.91,90,54,8.46,broken clouds
218,Guymon,US,36.6828,-101.4816,64.4,16,0,10.36,clear sky
219,Aklavik,CA,68.2191,-135.0107,-19.37,69,75,10.36,broken clouds
220,Doha,QA,25.2867,51.5333,60.78,65,0,5.75,clear sky
221,Magadi,IN,12.9667,77.2333,61.14,77,8,8.61,clear sky
222,Fereydun Kenar,IR,36.6864,52.5225,54.12,64,91,3.94,overcast clouds
223,Yola,NG,9.2,12.4833,76.91,13,36,4.05,scattered clouds
224,Yeppoon,AU,-23.1333,150.7333,76.78,66,0,7.54,clear sky
225,Cabedelo,BR,-6.9811,-34.8339,81.27,69,46,13.8,scattered clouds
226,Skibbereen,IE,51.55,-9.2667,43.11,70,100,10.11,overcast clouds
227,Clyde River,CA,70.4692,-68.5914,-19.97,69,75,18.41,broken clouds
228,Cap Malheureux,MU,-19.9842,57.6142,74.46,78,8,3.0,clear sky
229,Burnie,AU,-41.0667,145.9167,62.94,74,98,10.0,overcast clouds
230,Brigham City,US,41.5102,-112.0155,48.42,46,75,5.75,broken clouds
231,Raudeberg,NO,61.9875,5.1352,39.87,83,100,14.0,overcast clouds
232,Maldonado,UY,-34.6667,-54.9167,74.59,64,8,11.54,clear sky
233,Lavrentiya,RU,65.5833,-171.0,-24.09,93,61,7.58,broken clouds
234,Paita,PE,-5.0892,-81.1144,82.96,68,100,16.06,overcast clouds
235,Mar Del Plata,AR,-38.0023,-57.5575,73.42,69,0,13.8,clear sky
236,Hofn,IS,64.2539,-15.2082,23.7,71,4,17.94,clear sky
237,Rostovka,RU,55.3842,71.8891,-16.67,100,6,5.91,clear sky
238,Fez,MA,34.0372,-4.9998,52.05,57,0,4.61,clear sky
239,Eureka,US,40.8021,-124.1637,73.13,53,1,5.01,clear sky
240,Houston,US,29.7633,-95.3633,72.25,35,0,8.05,clear sky
241,Bela Vista,BR,-22.1089,-56.5211,84.56,34,65,5.14,broken clouds
242,Saint-Augustin,CA,51.226,-58.6502,25.34,80,91,17.07,overcast clouds
243,Staunton,US,38.1496,-79.0717,56.12,32,0,9.22,clear sky
244,Talnakh,RU,69.4865,88.3972,-3.8,98,100,10.89,light snow
245,Nalut,LY,30.3333,10.85,47.41,48,0,13.22,clear sky
246,Geraldton,AU,-28.7667,114.6,59.41,88,0,0.0,clear sky
247,Asasa,ET,7.1,39.2,56.28,49,90,4.18,overcast clouds
248,Klyuchi,RU,52.2667,79.1667,-12.68,100,96,5.93,overcast clouds
249,Alta Floresta,BR,-9.8756,-56.0861,71.58,97,100,2.82,overcast clouds
250,Bandarbeyla,SO,9.4942,50.8122,74.1,67,87,17.58,overcast clouds
251,Guerrero Negro,MX,27.9769,-114.0611,72.68,26,48,9.31,scattered clouds
252,Vanavara,RU,60.34,102.2797,-27.42,100,68,2.66,broken clouds
253,Lagoa,PT,39.05,-27.9833,58.69,71,2,15.95,clear sky
254,Brigantine,US,39.4101,-74.3646,48.49,71,0,11.5,clear sky
255,Havre-Saint-Pierre,CA,50.2334,-63.5986,34.16,55,0,11.5,clear sky
256,Ust-Kuyga,RU,70.0167,135.6,-32.76,96,100,9.06,overcast clouds
257,Victoria,HK,22.2855,114.1577,63.32,82,100,6.31,overcast clouds
258,Ronneby,SE,56.21,15.276,37.9,87,33,5.75,scattered clouds
259,Cherskiy,RU,68.75,161.3,-45.63,100,85,4.65,overcast clouds
260,Ust-Ilimsk,RU,58.0006,102.6619,-29.15,100,100,1.57,overcast clouds
261,Miri,MY,4.4148,114.0089,77.14,94,40,2.3,scattered clouds
262,Kiruna,SE,67.8557,20.2251,-2.74,100,100,2.66,overcast clouds
263,Apache Junction,US,33.4151,-111.5496,78.33,11,0,8.01,clear sky
264,Port Lincoln,AU,-34.7333,135.8667,64.35,66,75,6.24,broken clouds
265,Hambantota,LK,6.1241,81.1185,75.54,94,20,2.3,few clouds
266,Itarema,BR,-2.9248,-39.9167,80.24,74,22,11.32,few clouds
267,Simao,CN,22.7886,100.9748,45.66,60,90,1.32,overcast clouds
268,College,US,64.8569,-147.8028,-4.72,74,100,3.44,light snow
269,Naron,ES,43.5167,-8.1528,56.59,83,1,7.67,clear sky
270,Saint-Joseph,RE,-21.3667,55.6167,71.98,81,86,5.14,overcast clouds
271,Lasa,IT,46.6166,10.7002,38.28,35,7,2.42,clear sky
272,Porto Novo,BJ,6.4965,2.6036,84.02,83,42,8.86,scattered clouds
273,Bandar,ID,2.05,99.75,71.53,99,100,1.12,moderate rain
274,Serra Negra,BR,-22.6122,-46.7006,75.51,87,53,9.44,broken clouds
275,Shimoda,JP,34.6667,138.95,43.02,95,100,18.77,moderate rain
276,Oudtshoorn,ZA,-33.5907,22.2014,64.76,74,3,4.16,clear sky
277,Castro,BR,-24.7911,-50.0119,66.07,80,5,6.24,clear sky
278,Chicama,PE,-7.8447,-79.1469,70.34,61,100,7.99,overcast clouds
279,Iracoubo,GF,5.4802,-53.2011,77.04,84,44,9.31,scattered clouds
280,Salalah,OM,17.0151,54.0924,66.88,31,0,9.78,clear sky
281,Cabo San Lucas,MX,22.8909,-109.9124,82.51,44,28,5.99,scattered clouds
282,Chokurdakh,RU,70.6333,147.9167,-29.81,99,93,10.58,overcast clouds
283,Nanortalik,GL,60.1432,-45.2371,19.94,69,91,5.32,overcast clouds
284,Ponta Delgada,PT,37.7333,-25.6667,60.49,77,20,10.36,few clouds
285,Shafranovo,RU,53.9667,54.7667,9.61,97,100,5.44,overcast clouds
286,Maniwaki,CA,46.3834,-75.966,32.38,64,100,10.36,snow
287,Kaeo,NZ,-35.1,173.7833,77.32,86,98,7.67,overcast clouds
288,Akdepe,TM,42.0551,59.3788,30.29,73,6,10.29,clear sky
289,Caravelas,BR,-17.7125,-39.2481,78.21,83,4,7.61,clear sky
290,Lianran,CN,24.9227,102.485,39.74,68,3,2.84,clear sky
291,Isla Vista,US,34.4133,-119.861,88.92,20,0,3.0,clear sky
292,Campbell River,CA,50.0163,-125.2446,45.32,100,100,5.75,light intensity drizzle
293,Peleduy,RU,59.6289,112.7406,-15.84,99,99,2.57,overcast clouds
294,Kondinskoye,RU,59.6481,67.41,-0.15,97,46,8.68,scattered clouds
295,Mareeba,AU,-17.0,145.4333,74.44,86,8,0.89,clear sky
296,Sao Joao Da Barra,BR,-21.6403,-41.0511,75.29,93,100,12.12,overcast clouds
297,Zhetysay,KZ,40.7333,68.3,38.88,54,85,6.11,overcast clouds
298,Ostrovnoy,RU,68.0531,39.5131,22.95,87,75,18.37,broken clouds
299,Portland,US,45.5234,-122.6762,60.64,68,100,3.0,overcast clouds
300,Palenque,MX,17.5167,-91.9667,69.96,83,100,3.44,overcast clouds
301,Pevek,RU,69.7008,170.3133,-32.76,100,100,5.26,overcast clouds
302,Dicabisagan,PH,17.0818,122.4157,73.15,88,88,3.4,overcast clouds
303,Suntar,RU,62.1444,117.6319,-22.45,100,100,1.54,overcast clouds
304,Katherine,AU,-14.4667,132.2667,75.52,88,64,5.75,broken clouds
305,Ruidoso,US,33.3317,-105.673,54.63,12,0,16.11,clear sky
306,Noumea,NC,-22.2763,166.4572,82.0,99,100,19.06,moderate rain
307,Puerto Del Rosario,ES,28.5004,-13.8627,73.08,68,86,6.91,overcast clouds
308,Nakhon Phanom,TH,17.3333,104.4167,63.68,88,39,5.23,scattered clouds
309,Jaysingpur,IN,16.779,74.5564,67.32,45,2,6.96,clear sky
310,Kloulklubed,PW,7.0419,134.2556,77.5,78,100,11.65,overcast clouds
311,Rabaul,PG,-4.1967,152.1721,81.68,75,94,2.37,overcast clouds
312,Sangar,RU,63.9242,127.4739,-34.56,100,100,2.37,overcast clouds
313,Canchungo,GW,12.0672,-16.0333,78.93,66,15,5.21,few clouds
314,Abu Samrah,SY,35.3029,37.1841,46.94,82,96,12.3,overcast clouds
315,Cape Coast,GH,5.1053,-1.2466,79.39,86,9,8.3,clear sky
316,Grindavik,IS,63.8424,-22.4338,25.27,68,75,13.8,broken clouds
317,Santa Marta,CO,11.2408,-74.199,93.34,58,20,4.61,few clouds
318,Shubarkuduk,KZ,49.1447,56.4872,13.05,92,100,11.18,overcast clouds
319,Greiz,DE,50.65,12.2,46.62,85,100,1.01,overcast clouds
320,Gweta,BW,-20.1833,25.2333,75.9,58,10,8.5,clear sky
321,Kaitangata,NZ,-46.2817,169.8464,60.55,97,100,4.27,overcast clouds
322,Ulladulla,AU,-35.35,150.4667,79.88,44,4,2.51,clear sky
323,Waslala,NI,13.2333,-85.3833,88.14,33,16,7.81,few clouds
324,Zhicheng,CN,30.2956,111.5047,36.46,91,7,0.81,clear sky
325,Pavlodar,KZ,52.3,76.95,-13.2,84,0,13.42,clear sky
326,Adre,TD,13.4667,22.2,64.35,12,4,12.75,clear sky
327,Mana,GF,5.6592,-53.7767,77.63,79,69,7.96,broken clouds
328,Salina Cruz,MX,16.1667,-95.2,79.05,52,29,25.75,scattered clouds
329,Atambua,ID,-9.1061,124.8925,74.32,89,100,1.83,overcast clouds
330,At-Bashi,KG,41.1702,75.8106,0.86,86,87,2.48,overcast clouds
331,Beringovskiy,RU,63.05,179.3167,-19.26,87,7,6.87,clear sky
332,Santa Isabel Do Rio Negro,BR,-0.4139,-65.0192,76.64,95,98,1.19,light rain
333,Ayagoz,KZ,47.9714,80.4392,2.25,95,100,5.91,overcast clouds
334,Beloha,MG,-25.1667,45.05,72.19,89,0,4.07,clear sky
335,Tura,IN,25.5198,90.2201,56.03,66,6,2.93,clear sky
336,Ninotsminda,GE,41.2646,43.5916,23.45,94,94,7.0,overcast clouds
337,Calbuco,CL,-41.768,-73.1273,69.01,68,100,13.82,overcast clouds
338,Luanda,AO,-8.8368,13.2343,77.0,83,75,5.75,broken clouds
339,Sumbe,AO,-11.2061,13.8437,76.12,79,100,7.63,overcast clouds
340,Oranjemund,NA,-28.55,16.4333,64.11,88,0,10.47,clear sky
341,Delta Del Tigre,UY,-34.7633,-56.3853,75.61,57,20,13.8,few clouds
342,Mizque,BO,-17.941,-65.3402,65.62,69,99,6.89,overcast clouds
343,Salamiyah,SY,35.0113,37.0532,46.04,85,99,16.11,overcast clouds
344,Sinnamary,GF,5.3833,-52.95,76.84,85,33,9.91,scattered clouds
345,Tsaratanana,MG,-16.7833,47.65,74.34,94,100,2.26,light rain
346,Itigi,TZ,-5.7,34.4833,62.94,94,100,2.55,overcast clouds
347,Tazovskiy,RU,67.4667,78.7,-2.43,96,74,11.41,broken clouds
348,Tynda,RU,55.1667,124.7167,-18.58,97,100,2.39,overcast clouds
349,Ornskoldsvik,SE,63.2909,18.7153,25.75,93,25,8.05,scattered clouds
350,Port Shepstone,ZA,-30.7414,30.455,75.33,87,99,12.8,light rain
351,Grenville,GD,12.1167,-61.6167,82.45,76,7,13.76,clear sky
352,Jalgaon,IN,21.0167,75.5667,66.96,35,71,2.39,broken clouds
353,Jacareacanga,BR,-6.2222,-57.7528,75.85,89,100,1.25,moderate rain
354,Waingapu,ID,-9.6567,120.2641,78.35,84,100,4.83,overcast clouds
355,Nishihara,JP,26.1842,127.7558,63.68,94,100,19.57,light intensity shower rain
356,Basco,PH,20.4487,121.9702,74.95,82,34,14.52,scattered clouds
357,Lompoc,US,34.6391,-120.4579,88.7,19,0,11.5,clear sky
358,Amahai,ID,-3.3333,128.9167,76.95,90,100,10.49,overcast clouds
359,Maua,BR,-23.6678,-46.4614,71.4,91,73,8.43,broken clouds
360,Zhigansk,RU,66.7697,123.3711,-32.75,97,98,7.94,overcast clouds
361,Alugan,PH,12.2188,125.4808,78.84,77,97,12.75,overcast clouds
362,Iranshahr,IR,27.2025,60.6848,53.94,20,0,6.91,clear sky
363,Sakakah,SA,29.9697,40.2064,62.17,33,49,12.95,scattered clouds
364,Guaraniacu,BR,-25.1008,-52.8781,71.56,67,84,3.09,broken clouds
365,Auki,SB,-8.7676,160.7034,81.41,83,89,10.2,overcast clouds
366,Takoradi,GH,4.8845,-1.7554,79.07,87,5,6.93,clear sky
367,Keetmanshoop,NA,-26.5833,18.1333,82.94,23,95,13.35,overcast clouds
368,Asau,RO,46.4333,26.4,41.92,90,18,7.11,few clouds
369,Barrhead,GB,55.7992,-4.3929,38.64,92,75,12.66,broken clouds
370,Belgrade,RS,44.804,20.4651,46.06,77,0,5.75,clear sky
371,Okhtyrka,UA,50.3104,34.8988,26.89,92,66,9.71,broken clouds
372,Subate,LV,56.0062,25.9076,37.35,87,100,14.79,overcast clouds
373,Prince Rupert,CA,54.3161,-130.3201,47.89,100,100,19.57,moderate rain
374,Voh,NC,-20.9667,164.7,79.56,93,100,15.59,overcast clouds
375,Kahului,US,20.8947,-156.47,78.84,68,6,4.0,clear sky
376,Cockburn Town,TC,21.4612,-71.1419,77.95,75,0,19.55,clear sky
377,Tulun,RU,54.5611,100.5792,-16.1,100,98,3.02,overcast clouds
378,Tuatapere,NZ,-46.1333,167.6833,69.82,71,32,2.86,scattered clouds
379,Wabana,CA,47.6332,-52.9481,36.07,92,100,20.71,light shower snow
380,Omboue,GA,-1.5746,9.2618,78.53,86,100,4.63,light rain
381,Bilma,NE,18.6853,12.9164,64.33,12,0,11.56,clear sky
382,Khandyga,RU,62.6667,135.6,-39.96,100,75,1.16,broken clouds
383,Chernoyerkovskaya,RU,45.4331,37.7686,37.9,79,15,6.62,few clouds
384,Dalbandin,PK,28.8947,64.4101,50.43,27,0,4.94,clear sky
385,Marawi,PH,7.9986,124.2928,65.64,95,100,2.15,overcast clouds
386,Coahuayana,MX,18.7333,-103.6833,83.55,41,0,7.96,clear sky
387,Ixtapa,MX,20.7,-105.2,82.56,32,0,8.3,clear sky
388,Kununurra,AU,-15.7667,128.7333,76.98,94,34,3.44,scattered clouds
389,Urumqi,CN,43.801,87.6005,4.15,92,75,6.71,mist
390,Ileza,RU,61.0533,43.9002,23.18,96,99,6.78,overcast clouds
391,Mount Gambier,AU,-37.8333,140.7667,57.11,82,40,0.0,scattered clouds
392,Manokwari,ID,-0.8667,134.0833,76.12,89,100,6.15,overcast clouds
393,Petropavlovsk-Kamchatskiy,RU,53.0452,158.6483,12.79,92,75,6.71,broken clouds
394,Shediac,CA,46.2198,-64.5411,35.65,86,100,13.8,overcast clouds
395,Issoudun,FR,47.0,1.8333,46.31,81,0,10.36,clear sky
396,Vestmanna,FO,62.1564,-7.1664,29.32,93,75,0.0,snow
397,Tilichiki,RU,60.4667,166.1,-17.12,82,12,6.62,few clouds
398,Oktyabrskiy,RU,54.4815,53.471,19.18,90,100,12.06,overcast clouds
399,Kichera,RU,55.9375,110.0997,-7.74,86,97,6.38,overcast clouds
400,Jonava,LT,55.0833,24.2833,41.11,94,100,17.27,light intensity drizzle
401,Traverse City,US,44.7631,-85.6206,37.83,84,100,3.0,overcast clouds
402,Atar,MR,20.5169,-13.0499,73.2,10,1,9.6,clear sky
403,Pontes E Lacerda,BR,-15.2261,-59.3353,74.89,94,100,3.51,light rain
404,Mehamn,NO,71.0357,27.8492,22.91,89,44,12.71,scattered clouds
405,Pakdasht,IR,35.4752,51.6807,46.4,32,8,3.22,clear sky
406,Christchurch,NZ,-43.5333,172.6333,67.03,95,75,5.75,broken clouds
407,Broken Hill,AU,-31.95,141.4333,65.91,59,9,18.41,clear sky
408,Puerto Escondido,MX,15.85,-97.0667,82.17,59,31,6.24,scattered clouds
409,Linjiang,CN,41.8069,126.9078,7.86,98,88,1.3,overcast clouds
410,Goderich,CA,43.7501,-81.7165,39.52,70,100,12.66,overcast clouds
411,Sambava,MG,-14.2667,50.1667,75.58,93,70,5.37,light rain
412,Avera,US,33.194,-82.5271,63.37,42,0,6.4,clear sky
413,Palmer,US,42.1584,-72.3287,42.48,50,0,4.79,clear sky
414,Mazagao,BR,-0.115,-51.2894,87.85,89,85,4.07,overcast clouds
415,Malakal,SS,9.5334,31.6605,82.99,22,4,8.68,clear sky
416,Tucuman,AR,-26.8241,-65.2226,87.8,37,0,8.05,clear sky
417,Hovd,MN,48.0056,91.6419,-8.55,95,99,2.15,overcast clouds
418,Irbil,IQ,36.1926,44.0106,57.02,47,40,6.91,scattered clouds
419,Dukat,RU,62.55,155.55,-21.28,68,68,3.91,broken clouds
420,Luwuk,ID,-0.9516,122.7875,77.88,83,100,2.46,overcast clouds
421,Los Llanos De Aridane,ES,28.6585,-17.9182,70.12,39,0,11.5,clear sky
422,Venice,US,27.0998,-82.4543,71.98,64,0,16.11,clear sky
423,Laguna,US,38.421,-121.4238,76.82,42,0,1.01,clear sky
424,Saint-Georges,GD,12.0564,-61.7485,82.08,69,40,12.66,scattered clouds
425,Harsin,IR,34.2721,47.5861,32.81,53,1,5.17,clear sky
426,Sonta,RS,45.5947,19.0981,41.29,72,4,4.16,clear sky
427,Tambura,SS,5.6,27.4667,74.34,28,26,1.03,scattered clouds
428,Wajima,JP,37.4,136.9,40.41,73,100,12.82,overcast clouds
429,Talara,PE,-4.5772,-81.2719,83.16,54,0,14.97,clear sky
430,Huarmey,PE,-10.0681,-78.1522,73.9,72,98,8.32,overcast clouds
431,Kalmar,SE,56.6616,16.3616,39.13,80,0,17.27,clear sky
432,Chute-Aux-Outardes,CA,49.1168,-68.399,30.51,93,75,8.05,broken clouds
433,Jalu,LY,29.0331,21.5482,52.63,50,18,10.45,few clouds
434,Huanren,CN,41.2647,125.3667,13.05,97,92,0.31,overcast clouds
435,Bemidji,US,47.4736,-94.8803,20.14,79,100,16.11,overcast clouds
436,Sabalgarh,IN,26.25,77.4,52.25,95,1,5.17,clear sky
437,Poya,NC,-21.35,165.15,80.24,92,100,12.46,overcast clouds
438,Klaksvik,FO,62.2266,-6.589,31.12,70,100,17.4,snow
439,Dharchula,IN,29.85,80.5333,38.14,70,22,8.48,few clouds
440,Wilmington,US,34.2257,-77.9447,57.94,63,0,1.59,clear sky
441,Lixourion,GR,38.2019,20.4314,50.79,51,0,4.59,clear sky
442,Maarianhamina,AX,60.0973,19.9348,37.26,70,0,9.22,clear sky
443,Rumoi,JP,43.9344,141.6428,15.22,87,82,6.46,broken clouds
444,Mukilteo,US,47.9445,-122.3046,56.93,82,100,2.3,overcast clouds
445,Altay,CN,47.8667,88.1167,5.86,88,99,4.34,overcast clouds
446,Bismarck,US,46.8083,-100.7837,37.87,73,0,18.41,clear sky
447,Yatou,CN,37.15,122.3833,32.77,71,25,4.14,scattered clouds
448,Altamira,BR,-3.2033,-52.2064,84.29,79,40,5.75,scattered clouds
449,Saint Anthony,US,45.0205,-93.218,31.93,69,100,24.16,overcast clouds
450,Maicao,CO,11.3832,-72.2432,84.78,54,67,13.18,broken clouds
451,Evensk,RU,61.95,159.2333,-12.21,72,25,5.1,scattered clouds
452,Balykshi,KZ,47.0667,51.8667,28.4,86,0,15.66,clear sky
453,Puerto Narino,CO,-3.7703,-70.3831,87.75,99,100,1.12,overcast clouds
454,San Carlos De Bariloche,AR,-41.1456,-71.3082,71.35,33,75,25.32,broken clouds
455,Northam,GB,51.0333,-4.2167,47.01,97,100,4.41,overcast clouds
456,Tayoltita,MX,24.0833,-105.9333,74.28,17,6,7.25,clear sky
457,Helena,US,46.5927,-112.0361,50.41,55,70,15.01,broken clouds
458,Macklin,CA,52.3334,-109.9348,39.54,95,84,6.13,broken clouds
459,Bubaque,GW,11.2833,-15.8333,78.3,77,22,12.68,few clouds
460,Salta,AR,-24.7859,-65.4117,79.09,53,40,10.36,scattered clouds
461,Svetlogorsk,BY,52.6333,29.7333,31.71,98,100,10.98,snow
462,Tashla,RU,51.7716,52.7427,17.89,93,100,13.29,overcast clouds
463,Cap Estate,LC,14.0833,-60.95,80.26,69,40,12.66,scattered clouds
464,Launceston,AU,-41.45,147.1667,62.8,79,75,6.91,broken clouds
465,Do Gonbadan,IR,30.3586,50.7981,42.89,87,0,0.0,clear sky
466,Nouadhibou,MR,20.931,-17.0347,76.98,23,0,2.3,clear sky
467,Morshansk,RU,53.4435,41.8107,15.91,96,100,3.49,overcast clouds
468,Shitanjing,CN,39.2342,106.3439,14.95,48,59,3.51,broken clouds
469,Goedereede,NL,51.8175,3.9806,49.05,84,100,1.01,overcast clouds
470,Kholmskaya,RU,44.846,38.389,32.79,86,29,3.96,scattered clouds
471,Solnechnyy,RU,50.7214,136.6319,-2.56,98,100,1.99,overcast clouds
472,Ojinaga,MX,29.5667,-104.4167,68.58,20,0,0.0,clear sky
473,Mbulu,TZ,-3.85,35.5333,63.1,58,98,3.51,overcast clouds
474,Harper,LR,4.375,-7.7169,79.75,85,98,11.07,overcast clouds
475,Pemba,MZ,-12.974,40.5178,79.5,83,20,5.75,thunderstorm
476,Ciudad Bolivar,VE,8.1222,-63.5497,90.64,32,100,11.7,overcast clouds
477,Kalmunai,LK,7.4167,81.8167,75.34,81,94,6.42,overcast clouds
478,Iraan,US,30.914,-101.8979,68.56,6,0,1.01,clear sky
479,Bulgan,MN,48.8125,103.5347,-0.36,99,100,2.35,light snow
480,Polunochnoye,RU,60.8697,60.4153,12.72,94,100,10.25,overcast clouds
481,Meadow Lake,US,34.8014,-106.5436,54.86,21,2,7.54,clear sky
482,Santo Angelo,BR,-28.2992,-54.2631,86.32,28,0,4.61,clear sky
483,Belyy Yar,RU,53.6039,91.3903,-17.14,80,100,0.0,overcast clouds
484,Novosheshminsk,RU,55.0651,51.2338,23.86,88,100,18.03,overcast clouds
485,Hammerfest,NO,70.6634,23.6821,23.45,68,0,11.5,clear sky
486,Macenta,GN,8.5435,-9.471,72.7,23,0,3.36,clear sky
487,Tsiroanomandidy,MG,-18.7667,46.0333,69.6,97,99,1.79,heavy intensity rain
488,Sola,VU,-13.8833,167.55,82.31,80,96,25.26,overcast clouds
489,Norman Wells,CA,65.282,-126.8329,-7.56,64,100,17.27,overcast clouds
490,Honningsvag,NO,70.9821,25.9704,25.47,81,58,29.01,broken clouds
491,Pustoshka,RU,56.3355,29.369,32.7,98,100,10.98,light snow
492,Ahar,IR,38.4774,47.0699,29.34,89,63,8.28,broken clouds
493,Houma,US,29.5958,-90.7195,66.2,38,0,1.99,clear sky
494,Katangli,RU,51.7102,143.2326,12.7,95,100,9.73,snow
495,Jishou,CN,28.3167,109.7167,39.4,90,100,1.72,overcast clouds
496,Sistranda,NO,63.7256,8.834,37.9,72,91,39.15,overcast clouds
497,Mount Vernon,US,40.9126,-73.8371,45.99,59,3,3.0,clear sky
498,Mandal,IN,25.45,74.5667,54.36,87,0,7.25,clear sky
499,Alice Springs,AU,-23.7,133.8833,72.95,68,44,4.61,scattered clouds
500,Olinda,BR,-8.0089,-34.8553,83.93,65,40,6.91,scattered clouds
501,Leningradskiy,RU,69.3833,178.4167,-28.97,97,100,6.78,overcast clouds
502,Waipawa,NZ,-41.4122,175.5153,72.45,71,88,8.16,overcast clouds
503,Cabimas,VE,10.3883,-71.4399,84.81,64,95,9.51,overcast clouds
504,Moree,AU,-29.4667,149.85,75.47,47,0,10.96,clear sky
505,Goodyear,US,33.4353,-112.3582,81.01,8,20,3.44,few clouds
506,Saint Paul,US,44.9444,-93.0933,32.56,69,100,24.16,overcast clouds
507,Luba,GQ,3.4568,8.5547,81.34,76,72,6.58,broken clouds
508,Edea,CM,3.8,10.1333,76.93,88,69,1.66,broken clouds
509,Srednekolymsk,RU,67.45,153.6833,-43.08,99,91,6.93,overcast clouds
510,Howick,ZA,-29.4779,30.2306,63.03,96,59,1.14,broken clouds
511,Shankargarh,IN,25.1833,81.6167,57.69,83,84,8.41,broken clouds
512,Jaciara,BR,-15.9653,-54.9683,71.35,96,100,2.35,moderate rain
513,San Jose,US,37.3394,-121.895,77.74,28,75,6.91,broken clouds
514,Golfito,CR,8.639,-83.166,81.45,78,71,3.76,light rain
515,Les Cayes,HT,18.2,-73.75,78.84,73,16,6.87,few clouds
516,Oeiras Do Para,BR,-2.0031,-49.8544,75.15,96,73,3.8,broken clouds
517,Sao Felix Do Xingu,BR,-6.6447,-51.995,74.52,97,100,1.97,overcast clouds
518,West Wendover,US,40.7391,-114.0733,51.39,36,78,5.82,broken clouds
519,Bonavista,CA,48.6499,-53.1147,37.11,95,100,14.25,overcast clouds
520,Kieta,PG,-6.2167,155.6333,83.26,75,66,4.56,broken clouds
521,Barreirinhas,BR,-2.7469,-42.8264,77.41,86,52,6.04,broken clouds
522,Contamana,PE,-7.3333,-75.0167,79.47,78,98,3.0,overcast clouds
523,Adrar,MR,20.5022,-10.0711,67.21,11,1,12.44,clear sky
524,La Rioja,ES,42.25,-2.5,42.04,53,0,4.7,clear sky
525,Damaturu,NG,11.747,11.9608,66.7,10,6,9.15,clear sky
526,Culpeper,US,38.5004,-77.9664,58.71,23,0,5.75,clear sky
527,Isiro,CD,2.7739,27.616,70.03,48,44,2.53,scattered clouds
528,Moreira Sales,BR,-24.0622,-53.0069,77.02,64,95,4.7,overcast clouds
529,Surt,LY,31.2089,16.5887,57.43,60,94,11.79,overcast clouds
530,Vuktyl,RU,63.8567,57.3094,11.52,78,17,12.55,few clouds
531,Dwarka,IN,22.2394,68.9678,69.49,62,0,14.0,clear sky
532,Ahipara,NZ,-35.1667,173.1667,76.1,80,91,10.04,overcast clouds
533,Rabak,SD,13.1809,32.74,76.86,25,1,11.21,clear sky
534,Dapaong,TG,10.8639,0.205,80.85,12,21,7.92,few clouds
535,New Bern,US,35.1085,-77.0441,59.09,57,2,1.45,clear sky
536,Ganta,LR,7.3022,-8.5308,74.77,32,9,3.09,clear sky
537,Kaa-Khem,RU,51.6833,94.7333,-20.43,88,28,4.43,scattered clouds
538,Fort Nelson,CA,58.8053,-122.7002,8.19,85,100,4.61,overcast clouds
539,Hanmer Springs,NZ,-42.5167,172.8167,67.35,94,100,3.74,moderate rain
540,Rio Cuarto,AR,-33.1307,-64.3499,83.68,20,3,12.39,clear sky
541,Faya,SA,18.3851,42.4509,56.1,77,2,5.57,clear sky
542,Nizwa,OM,22.9333,57.5333,61.07,64,0,1.25,clear sky
543,Jiayuguan,CN,39.8167,98.3,18.95,54,100,5.46,overcast clouds
544,Udupi,IN,13.35,74.75,76.24,90,5,2.68,clear sky
545,Richards Bay,ZA,-28.783,32.0377,70.29,90,0,2.51,clear sky
546,Isangel,VU,-19.55,169.2667,78.76,95,100,34.14,heavy intensity rain
547,Chiplun,IN,17.5333,73.5167,62.26,78,24,2.08,few clouds
548,Taldan,RU,53.6667,124.8,-6.84,99,96,2.3,overcast clouds
549,Pombas,CV,17.1503,-25.0201,71.38,71,25,6.49,scattered clouds
550,Alyangula,AU,-13.8483,136.4192,83.32,75,84,13.4,broken clouds
551,Sabla,NG,12.7525,4.7077,75.43,12,5,10.13,clear sky
552,Orange Cove,US,36.6244,-119.3137,75.29,28,61,2.75,broken clouds
553,Goundam,ML,16.4145,-3.6708,71.1,8,0,10.63,clear sky
554,Oranjestad,AW,12.524,-70.027,79.12,80,27,20.92,scattered clouds
555,Wanning,CN,18.8003,110.3967,71.1,93,78,5.55,broken clouds
556,Middelburg,ZA,-25.7751,29.4648,70.84,54,84,10.6,broken clouds
557,Mujiayingzi,CN,42.1167,118.7833,19.42,64,0,5.64,clear sky
558,Ellisras,ZA,-23.6649,27.7443,71.35,58,31,1.63,scattered clouds
559,Sorong,ID,-0.8833,131.25,78.17,87,100,3.87,light rain
560,Ca Mau,VN,9.1769,105.15,76.84,83,90,9.6,overcast clouds
561,Ocampo,MX,21.65,-101.5,69.94,19,1,14.23,clear sky
562,Rocha,UY,-34.4833,-54.3333,68.56,69,7,10.25,clear sky
563,Riverton,US,40.5219,-111.9391,50.5,40,0,11.5,clear sky
564,Villarrica,PY,-25.75,-56.4333,82.13,39,0,3.18,clear sky
565,Berwick,US,41.0545,-76.2333,48.06,76,62,8.41,broken clouds
566,Urengoy,RU,65.9667,78.3667,-8.93,88,69,10.02,broken clouds
567,Iralaya,HN,15.0,-83.2333,79.63,68,22,12.21,few clouds
568,Umea,SE,63.8284,20.2597,27.91,93,0,3.44,clear sky
569,Nioro,GM,13.35,-15.75,83.61,9,55,7.72,broken clouds
570,Vieste,IT,41.8825,16.175,52.57,50,0,8.61,clear sky
571,Hamilton,US,39.1834,-84.5333,51.62,54,91,3.0,overcast clouds
572,Komsomolskiy,UZ,40.4272,71.7189,35.02,74,100,4.61,overcast clouds
573,Bowen,AU,-20.0167,148.2333,77.49,72,12,5.39,few clouds
574,Boca Do Acre,BR,-8.7522,-67.3978,78.17,94,48,2.64,scattered clouds
575,Kautokeino,NO,69.0125,23.0412,16.14,94,100,5.3,overcast clouds
576,Bage,BR,-31.3314,-54.1069,80.38,39,0,10.36,clear sky
577,Odweyne,SO,9.4092,45.064,66.24,30,58,9.71,broken clouds
578,Sao Gabriel Da Cachoeira,BR,-0.1303,-67.0892,78.55,83,99,2.64,light rain
579,Okato,NZ,-39.2,173.8833,74.91,91,94,12.1,overcast clouds
580,Margate,GB,51.3813,1.3862,48.88,86,93,3.0,overcast clouds
581,Terrace,CA,54.5163,-128.6035,43.43,100,100,5.01,heavy intensity rain
582,Vanimo,PG,-2.6741,141.3028,78.46,86,86,2.26,overcast clouds
583,Manta,EC,-0.95,-80.7333,77.95,78,100,12.86,overcast clouds
584,Bonthe,SL,7.5264,-12.505,77.88,87,0,5.84,clear sky
585,Krasnoselkup,RU,65.7,82.4667,-12.48,87,48,9.89,scattered clouds
586,Coihaique,CL,-45.5752,-72.0662,66.15,27,20,6.91,few clouds
587,Nadym,RU,65.5333,72.5167,-3.53,97,12,12.35,few clouds
588,Qinhuangdao,CN,39.9317,119.5883,30.99,59,4,3.96,clear sky
589,Bathurst,AU,-33.4166,149.5806,74.28,65,6,1.01,clear sky
590,Usmajac,MX,19.8667,-103.5667,77.68,16,0,7.9,clear sky
591,Almaznyy,RU,48.0448,40.045,28.54,74,100,11.63,overcast clouds
592,Ewa Beach,US,21.3156,-158.0072,81.01,55,6,11.01,clear sky
593,Chase,CA,50.8165,-119.6857,45.39,97,99,1.61,overcast clouds
594,Mecca,SA,21.4267,39.8261,72.25,77,2,1.99,clear sky
595,Praia,CV,14.9215,-23.5087,75.74,57,0,12.66,clear sky
596,Yurimaguas,PE,-5.9,-76.0833,77.72,95,99,0.83,overcast clouds
597,Nuuk,GL,64.1835,-51.7216,23.61,93,100,27.63,heavy snow
598,Banjarmasin,ID,-3.3244,114.591,75.34,95,100,0.94,light rain
599,Muzhi,RU,65.3667,64.6667,0.97,98,97,6.78,overcast clouds
600,Chimbote,PE,-9.0853,-78.5783,73.99,67,100,8.48,overcast clouds
601,Sioux Lookout,CA,50.1001,-91.917,12.58,90,100,11.86,overcast clouds
602,Kaitong,CN,44.8135,123.15,0.03,98,63,5.21,broken clouds
603,Kathmandu,NP,27.7167,85.3167,44.1,79,73,2.17,broken clouds
604,Lincoln,US,40.8,-96.667,52.18,36,0,16.11,clear sky
605,Dakoro,NE,14.5106,6.765,69.24,9,3,11.21,clear sky
606,Tual,ID,-5.6667,132.75,81.36,82,100,17.49,light rain
607,Silver City,US,32.7701,-108.2803,60.67,13,0,9.22,clear sky
608,Haines Junction,CA,60.7522,-137.5108,36.55,91,30,9.57,scattered clouds
609,Bestobe,KZ,52.4994,73.0975,-8.86,100,90,5.44,overcast clouds
610,Ndioum,SN,16.5129,-14.6471,82.06,7,24,10.87,few clouds
611,Vangaindrano,MG,-23.35,47.6,75.49,94,48,5.46,light rain
612,Zhifang,CN,30.35,114.3167,37.17,83,12,2.64,few clouds
613,Hobyo,SO,5.3505,48.5268,76.03,72,54,22.32,broken clouds
614,Ginir,ET,7.1333,40.7,60.19,38,61,5.08,broken clouds
615,Santa Maria,BR,-29.6842,-53.8069,79.07,35,0,6.33,clear sky
616,Dudinka,RU,69.4058,86.1778,-3.39,97,100,17.11,overcast clouds
617,Payette,US,44.0782,-116.9338,49.62,49,0,5.75,clear sky
618,Harqalah,TN,36.0303,10.509,49.86,65,0,3.44,clear sky
619,Biak,ID,-0.9131,122.8766,76.78,82,100,2.55,overcast clouds
620,Tanout,NE,14.9709,8.8879,66.27,8,23,11.5,few clouds
621,Campo Grande,BR,-20.4428,-54.6464,83.75,37,0,5.75,clear sky
622,Luganville,VU,-15.5333,167.1667,83.19,75,100,6.98,overcast clouds
623,Yumen,CN,40.2833,97.2,21.92,46,100,12.26,overcast clouds
624,Lodja,CD,-3.4833,23.4333,71.91,92,100,1.03,overcast clouds
625,Pietersburg,ZA,-23.9045,29.4688,67.69,58,10,4.7,clear sky
626,La Asuncion,VE,11.0333,-63.8628,77.76,78,12,15.23,few clouds
627,Piste,MX,20.7,-88.5833,75.13,61,91,6.2,overcast clouds
628,Bac Lieu,VN,9.285,105.7244,77.94,83,97,16.13,overcast clouds
629,Kemijarvi,FI,66.7131,27.4306,26.04,93,100,8.57,overcast clouds
630,Flinders,AU,-34.5833,150.8552,82.38,61,25,2.33,scattered clouds
631,Berlevag,NO,70.8578,29.0864,22.95,74,0,24.16,clear sky
632,Marrakesh,MA,31.6315,-8.0083,64.47,34,20,3.44,few clouds
633,Sohag,EG,26.557,31.6948,52.32,41,0,9.82,clear sky
634,Horta,PT,38.5333,-28.6333,58.42,76,2,15.57,clear sky
635,Arys,KZ,42.4252,68.795,32.22,65,100,6.6,overcast clouds
636,Nigde,TR,37.8333,34.75,26.29,98,100,3.36,light snow
637,Lexington Park,US,38.2668,-76.4538,53.28,49,0,10.36,clear sky
638,San Andres,CO,12.5847,-81.7006,84.22,65,20,8.05,few clouds
639,Miramar,US,25.9873,-80.2323,65.05,89,100,8.05,overcast clouds
640,Chichihualco,MX,17.6833,-99.65,71.01,47,86,4.03,overcast clouds
641,Tazmalt,DZ,36.3868,4.3989,48.67,67,0,5.01,clear sky
642,Neiafu,TO,-18.65,-173.9833,75.88,94,75,10.36,light rain
643,Turukhansk,RU,65.8167,87.9833,-24.65,99,31,7.11,scattered clouds
644,Chiang Klang,TH,19.2938,100.8617,63.77,60,6,1.28,clear sky
645,Carutapera,BR,-1.195,-46.02,75.99,91,77,5.57,broken clouds
646,Bafq,IR,31.6128,55.4107,53.6,17,0,5.48,clear sky
647,Nouakchott,MR,18.0858,-15.9785,76.15,23,6,12.15,clear sky
648,Sturgeon Bay,US,44.8342,-87.377,36.97,64,100,16.11,overcast clouds
649,Mangrol,IN,21.1167,70.1167,66.83,61,2,12.33,clear sky
650,Muisne,EC,0.6,-80.0333,77.65,84,97,6.51,light rain
651,Wanxian,CN,30.8039,108.3897,40.48,85,17,2.84,few clouds
652,Leshukonskoye,RU,64.8989,45.7622,17.2,94,100,9.66,light snow
653,Chacabuco,AR,-34.6417,-60.4739,81.81,40,0,6.78,clear sky
654,Labuhan,ID,-6.8844,112.2051,77.34,89,100,9.1,overcast clouds
655,Kirksville,US,40.1948,-92.5833,47.05,49,40,14.97,scattered clouds
656,Henties Bay,NA,-22.116,14.2845,67.86,85,3,2.19,clear sky
